StationUniqueId,AreaName,Lat,Lon,Name
910GACTNCTL,AC,51.50862,-0.26351,Acton Central
910GACTONML,AC-B,51.51732,-0.26669,Acton Main Line
910GANERLEY,AcAne,51.41221,-0.06544,Anerley
910GBCKNHMH,Bus,51.42375,-0.01489,Beckenham Hill
910GBELNGHM,Entr,51.43278,-0.01948,Bellingham
910GBHILLPK,BRDGE,51.6413,-0.06916,Bush Hill Park
910GBICKLEY,Bus,51.39904,0.04665,Bickley
910GBKRVS,Bus,51.51865,0.12017,Barking Riverside
910GBNHAM,Bus,51.52341,-0.64623,Burnham
910GBRBY,Bus,51.54537,-0.20195,Brondesbury
910GBRBYPK,BUS,51.54067,-0.20958,Brondesbury Park
910GBRENTX,BusE,51.56822,-0.22401,Brent Cross West Station
910GBROCKLY,Brdge,51.4642,-0.03799,Brockley
910GBROMLYS,Bridg,51.39994,0.0193,Bromley South
910GBRTWOOD,EntA,51.61384,0.30015,Brentwood
910GBRUCGRV,Bus 1,51.5936,-0.06991,Bruce Grove
910GBTHNLGR,Entr,51.52389,-0.05948,Bethnal Green
910GCAMHTH,Bus,51.53253,-0.05759,Cambridge Heath
910GCATFORD,Entr,51.44415,-0.02634,Catford
910GCFPK,Bus,51.45457,-0.03742,Crofton Park
910GCHDWLHT,Bus,51.56826,0.12985,Chadwell Heath
910GCHESHNT,BRDGE,51.70286,-0.02379,Cheshunt
910GCHINGFD,Bus,51.6336,0.01031,Chingford
910GCLAPTON,Bus,51.56203,-0.05746,Clapton
910GCLDNNRB,Bus,51.54245,-0.11734,Caledonian Road & Barnsbury
910GCLPHHS,Entr,51.46508,-0.13199,Clapham High Street
910GCMDNRD,Bus,51.54177,-0.13836,Camden Road
910GCNNB,Bus,51.54928,-0.09266,Canonbury
910GCOLSDNS,BRIDG,51.31569,-0.13804,Coulsdon South
910GCRKLWD,Bus,51.55925,-0.21218,Cricklewood
910GCRLN,EntC,51.48697,0.0318,Charlton
910GCROUCHH,Bus,51.57111,-0.11719,Crouch Hill
910GCRPNDPK,Entr,51.62877,-0.38582,Carpenders Park
910GCRSHLTN,BusNS,51.36841,-0.16501,Carshalton
910GCTMSLNK,Bus,51.51669,-0.10342,City Thameslink
910GDALS,BUS D,51.54489,-0.07592,Dalston Junction
910GDALSKLD,Bus,51.54842,-0.07546,Dalston Kingsland
910GDARTFD,Bus,51.4466,0.21829,Dartford
910GDENMRKH,Bus,51.46789,-0.08922,Denmark Hill
910GDEPTFD,Entr,51.47902,-0.0261,Deptford
910GEDMNGRN,Bus,51.6252,-0.06204,Edmonton Green
910GELTR,Bus,51.65327,-0.27951,Elstree & Borehamwood
910GEMRSPKH,Bus,51.56908,0.2196,Emerson Park
910GENFLDTN,Bus,51.65238,-0.07842,Enfield Town
910GESTFLDS,Bus,51.40803,-0.15415,Mitcham Eastfields
910GFNCHLYR,Bus,51.55019,-0.18268,Finchley Road & Frognal
910GFORESTH,BRBG,51.43952,-0.05312,Forest Hill
910GFRSTGT,Bus,51.54952,0.02479,Forest Gate
910GGIDEAPK,Bus,51.58144,0.20601,Gidea Park
910GGODMAYS,Bus,51.56539,0.11039,Goodmayes
910GGOSPLOK,BCQ,51.55509,-0.15113,Gospel Oak
910GHACKNYC,Bus,51.54767,-0.05634,Hackney Central
910GHACKNYW,Bus,51.54317,-0.02542,Hackney Wick
910GHAGGERS,Entr,51.53847,-0.07559,Haggerston
910GHAKNYNM,Bus,51.54908,-0.06085,Hackney Downs
910GHANWELL,BHS,51.51197,-0.33843,Hanwell
910GHAYESAH,Bus,51.50334,-0.42068,Hayes & Harlington
910GHDON,Bridg,51.58006,-0.23879,Hendon
910GHEDSTNL,Bridg,51.60282,-0.35708,Headstone Lane
910GHERNEH,Bus,51.45258,-0.10278,Herne Hill
910GHGHMSPK,BRDG,51.60908,-0.00026,Highams Park
910GHKBG,EntC,51.37805,-0.15399,Hackbridge
910GHMPSTDH,Entr,51.55541,-0.16573,Hampstead Heath
910GHOMRTON,Entr,51.54697,-0.04235,Homerton
910GHONROPK,Bus,51.44964,-0.04509,Honor Oak Park
910GHOXTON,Bus,51.53102,-0.07517,Hoxton
910GHRGYGL,Bus,51.57749,-0.09871,Harringay Green Lanes
910GHRLDWOD,Bus,51.59327,0.23323,Harold Wood
910GHTCHEND,Bridg,51.60953,-0.36816,Hatch End
910GHYDNSRD,Bus,51.42492,-0.1899,Haydons Road
910GILFORD,Bus,51.55966,0.07002,Ilford
910GIVER,EntB,51.50874,-0.50631,Iver
910GKENR,Bridg,51.53467,-0.21962,Kensal Rise
910GKLBRNHR,Bus,51.5376,-0.19269,Kilburn High Road
910GKNTSHTW,Bus,51.54634,-0.14672,Kentish Town West
910GLANGLEY,Bus,51.50806,-0.54202,Langley
910GLBGHJN,Bus,51.4661,-0.10369,Loughborough Junction
910GLEYTNMR,Bus,51.56984,-0.00835,Leyton Midland Road
910GLONFLDS,EntMa,51.54102,-0.05818,London Fields
910GLYTNSHR,Bus,51.56321,0.00956,Leytonstone High Road
910GMANRPK,Bus,51.55215,0.0468,Manor Park
910GMAZEH,Bridg,51.48279,0.00308,Maze Hill
910GMDNHEAD,Bus,51.51858,-0.72252,Maidenhead
910GMLHB,Bus,51.61365,-0.24936,Mill Hill Broadway
910GMORDENS,Bus,51.39704,-0.20019,Morden South
910GMRYLAND,Bus,51.54645,0.00626,Maryland
910GNBARNET,Bus,51.64901,-0.17359,New Barnet
910GNEWSGAT,Bus,51.6152,-0.14341,New Southgate
910GNUNHEAD,BUS,51.46649,-0.05137,Nunhead
910GOKLGHPK,Bus,51.63728,-0.16644,Oakleigh Park
910GORPNGTN,Bus G,51.3732,0.08959,Orpington
910GPCKHMQD,Bus,51.47363,-0.0578,Queens Road Peckham
910GPCKHMRY,Bus,51.46979,-0.06856,Peckham Rye
910GPENEW,Bdge,51.41755,-0.06084,Penge West
910GPETSWD,EntrE,51.38921,0.07457,Petts Wood
910GPLMS,Bus,51.48962,0.08583,Plumstead
910GPURLEY,Bus,51.33847,-0.1138,Purley
910GRBRN,BUS,51.41253,-0.00507,Ravensbourne
910GRCTRYRD,Entr,51.55857,-0.06857,Rectory Road
910GRDNGSTN,BCQ,51.45814,-0.97166,Reading
910GROMFORD,Bus,51.57417,0.18381,Romford
910GRTHERHI,A-BRU,51.50075,-0.05209,Rotherhithe
910GSACTON,BRI,51.49927,-0.27049,South Acton
910GSBURY,Entr,51.64887,-0.05263,Southbury
910GSCROYDN,Ent1,51.36283,-0.09378,South Croydon
910GSHENFLD,Entr,51.63087,0.32937,Shenfield
910GSHLIER,Bus,51.3895,-0.19683,St Helier (London)
910GSHMPSTD,Entr,51.54147,-0.17937,South Hampstead
910GSHRDHST,BusB,51.52408,-0.07964,Shoreditch High Street
910GSHRTLND,Bus,51.40518,0.00088,Shortlands
910GSIVRST,ANGEL,51.61474,-0.06719,Silver Street
910GSLADEGN,EntC,51.46769,0.1905,Slade Green
910GSLOUGH,EntB,51.5118,-0.59158,Slough
910GSMERTON,Bus,51.40277,-0.20568,South Merton
910GSTHALL,Bus,51.50579,-0.37879,Southall
910GSTJMSST,Bus,51.58084,-0.03311,St James Street
910GSTKNWNG,Bus,51.56474,-0.07307,Stoke Newington
910GSTMFDHL,Bus,51.57446,-0.07752,Stamford Hill
910GSTMRYC,Bus,51.39571,0.10715,St Mary Cray
910GSTOTNHM,Bus,51.58056,-0.07263,South Tottenham
910GSTRETHM,Bus,51.42562,-0.13065,Streatham
910GSURREYQ,A-LOW,51.49354,-0.04795,Surrey Quays
910GSUTTON,Bus H,51.35955,-0.19142,Sutton
910GSUTTONC,Bus,51.37505,-0.19668,Sutton Common
910GSVNKNGS,Bus,51.56445,0.09872,Seven Kings
910GSWLY,EntE,51.39378,0.16845,Swanley
910GTAPLOW,Bus,51.52356,-0.68137,Taplow
910GTHBLDSG,Bus,51.69274,-0.03438,Theobalds Grove
910GTOOTING,Bus,51.42072,-0.16103,Tooting
910GTULSEH,BRI,51.43955,-0.10526,Tulse Hill
910GTURKYST,Bus,51.67231,-0.04759,Turkey Street
910GTWYFORD,Bdg,51.47544,-0.86315,Twyford
910GUPRHLWY,Bus,51.56385,-0.12927,Upper Holloway
910GWAPPING,A-WAP,51.50438,-0.05599,Wapping
910GWATFDHS,Entr,51.65256,-0.39141,Watford High Street
910GWCOMBEP,Bus,51.48323,0.01976,Westcombe Park
910GWDGRNPK,Bus,51.54919,0.04342,Woodgrange Park
910GWDRYTON,Bus,51.51019,-0.47318,West Drayton
910GWDST,Bus,51.58669,-0.00273,Wood Street
910GWEALING,Bus,51.51417,-0.32047,West Ealing
910GWHHRTLA,Bus,51.6053,-0.06878,White Hart Lane
910GWHMDSTD,ENTBR,51.54747,-0.19116,West Hampstead
910GWHMPSTM,Bus,51.54846,-0.19107,West Hampstead Thameslink
910GWIMLCHS,Bus,51.40936,-0.21335,Wimbledon Chase
910GWLTHQRD,Entr,51.58148,-0.02411,Walthamstow Queen's Road
910GWNDSWRD,Bdge,51.47,-0.13846,Wandsworth Road
910GWNSTDPK,Bus,51.55141,0.02529,Wanstead Park
910GWOLWXR,BH,51.49207,0.07069,Woolwich
910GWSUTTON,BUS,51.36623,-0.20553,West Sutton
940GZZALGWP,MET,51.49986,0.00799,IFS Cloud Greenwich Peninsula
940GZZALRDK,Bus,51.50809,0.01787,IFS Cloud Royal Docks
940GZZBPSUST,BH,51.47993,-0.14214,Battersea Power Station
940GZZCRADD,Bus,51.38015,-0.07336,Addiscombe
940GZZCRADV,ENT,51.35649,-0.0324,Addington Village
940GZZCRAMP,ENTE,51.38214,-0.12344,Ampere Way
940GZZCRARA,Bus,51.38933,-0.05653,Arena
940GZZCRAVE,ENT,51.40689,-0.04888,Avenue Road
940GZZCRBED,Bus,51.38811,-0.14108,Beddington Lane
940GZZCRBGV,BUS,51.39934,-0.17952,Belgrave Walk
940GZZCRBLA,Bus,51.38568,-0.07174,Blackhorse Lane
940GZZCRBRD,Bus,51.40936,-0.04363,Beckenham Road
940GZZCRCEN,ENT,51.37398,-0.09875,George Street
940GZZCRCHR,Bus,51.37401,-0.10508,Church Street
940GZZCRCOO,Bus,51.35936,-0.05547,Coombe Lane
940GZZCRCTR,Bus,51.37586,-0.10377,Centrale
940GZZCRDDR,ENT,51.41743,-0.20751,Dundonald Road
940GZZCRFLD,Bus,51.3509,-0.02393,Fieldway
940GZZCRGRA,Bus1,51.35279,-0.03751,Gravel Hill
940GZZCRHAR,ENT,51.39944,-0.06038,Harrington Road
940GZZCRKGH,Bus,51.34558,-0.02053,King Henry's Drive
940GZZCRLEB,Bus,51.37518,-0.08469,Lebanon Road
940GZZCRLOY,Bus,51.36424,-0.08178,Lloyd Park
940GZZCRMCH,Bus,51.3974,-0.17289,Mitcham
940GZZCRMDN,Bus,51.40929,-0.19239,Morden Road
940GZZCRMTP,Bus,51.4148,-0.20143,Merton Park
940GZZCRNWA,Bus,51.34313,-0.01781,New Addington
940GZZCRPHI,BUS,51.40423,-0.18225,Phipps Bridge
940GZZCRRVC,ENT,51.37474,-0.10624,Reeves Corner
940GZZCRSAN,Bus,51.37516,-0.07891,Sandilands
940GZZCRTPA,Bus,51.38597,-0.13089,Therapia Lane
940GZZCRWAD,BUS,51.37668,-0.11835,Waddon Marsh
940GZZCRWAN,ENT,51.37316,-0.1131,Wandle Park
940GZZCRWEL,ENT,51.37537,-0.09755,Wellesley Road
940GZZCRWOD,BUSN,51.38825,-0.06484,Woodside
940GZZDLABR,ABBEY,51.53209,0.00383,Abbey Road
940GZZDLALL,BUS,51.5112,-0.01311,All Saints
940GZZDLBEC,Bus,51.51474,0.06065,Beckton
940GZZDLBLA,Bus,51.50827,-0.00713,Blackwall
940GZZDLBOW,BOWRD,51.52781,-0.02094,Bow Church
940GZZDLBPK,BRDGE,51.50877,0.05497,Beckton Park
940GZZDLCLA,Bus,51.49592,-0.01414,Crossharbour
940GZZDLCYP,BRDGE,51.50849,0.06398,Cyprus
940GZZDLDEP,BCQ,51.47441,-0.02279,Deptford Bridge
940GZZDLDEV,CONC,51.52259,-0.01737,Devons Road
940GZZDLEIN,ASPEN,51.50944,-0.00263,East India
940GZZDLELV,Bus,51.46844,-0.01876,Elverson Road
940GZZDLGAL,Bus,51.50857,0.07249,Gallions Reach
940GZZDLHEQ,Bus,51.50324,-0.02089,Heron Quays
940GZZDLISL,Bus,51.48767,-0.01036,Island Gardens
940GZZDLKGV,BridE,51.50192,0.06304,King George V
940GZZDLLDP,BOOKH,51.51512,-0.01427,Langdon Park
940GZZDLMUD,Bus,51.49066,-0.01454,Mudchute
940GZZDLPDK,DLR-E,51.5023,0.0334,Pontoon Dock
940GZZDLPOP,ASPEN,51.50743,-0.01786,Poplar
940GZZDLPRE,Bridg,51.50918,0.03405,Prince Regent
940GZZDLPUD,BOOK,51.53406,-0.01315,Pudding Mill Lane
940GZZDLRAL,Bus,51.50811,0.04637,Royal Albert
940GZZDLRVC,BookH,51.50921,0.01863,Royal Victoria
940GZZDLSHS,B+R,51.53765,5e-05,Stratford High Street
940GZZDLSIT,BH-E,51.54583,-0.00855,Stratford International
940GZZDLSOQ,DLR-N,51.50001,-0.01638,South Quay
940GZZDLSTL,B+R,51.52072,0.00454,Star Lane
940GZZDLWFE,BUS,51.50899,-0.02674,Westferry
940GZZDLWIQ,CONC,51.50698,-0.0204,West India Quay
940GZZDLWSV,Bus,51.50287,0.02337,West Silvertown
940GZZLUACT,A-GUN,51.50301,-0.28042,Acton Town
940GZZLUACY,A-JUN,51.56524,-0.13476,Archway
940GZZLUADE,A-W/C,51.5153,-0.07208,Aldgate East
940GZZLUAGL,A-UPP,51.53279,-0.10599,Angel
940GZZLUALD,ALDGA,51.51405,-0.07528,Aldgate
940GZZLUALP,A-EAL,51.54063,-0.29913,Alperton
940GZZLUASG,A-BOW,51.61606,-0.1334,Arnos Grove
940GZZLUASL,A-GIL,51.5584,-0.10568,Arsenal
940GZZLUBBB,A-SLS,51.52473,-0.01144,Bromley-by-Bow
940GZZLUBBN,A-ALD,51.52031,-0.09753,Barbican
940GZZLUBDS,A-BOU,51.60693,-0.12456,Bounds Green
940GZZLUBEC,A-GAL,51.5404,0.12751,Becontree
940GZZLUBKE,BookH,51.58581,0.0885,Barkingside
940GZZLUBKH,A-VIC,51.62662,0.04653,Buckhurst Hill
940GZZLUBLG,A-ROM,51.52732,-0.05527,Bethnal Green
940GZZLUBMY,A-JAM,51.49814,-0.06363,Bermondsey
940GZZLUBOR,A-BOR,51.50123,-0.0934,Borough
940GZZLUBOS,A-BOS,51.49585,-0.32446,Boston Manor
940GZZLUBSC,A-BAR,51.49037,-0.21355,Barons Court
940GZZLUBST,A-M-N,51.52246,-0.15695,Baker Street
940GZZLUBTK,A-WAT,51.60259,-0.26398,Burnt Oak
940GZZLUBTX,A-HIG,51.57674,-0.21319,Brent Cross
940GZZLUBWR,A-BOW,51.52712,-0.02501,Bow Road
940GZZLUBWT,A-QUE,51.51239,-0.18769,Bayswater
940GZZLUBZP,A-BEL,51.55041,-0.16447,Belsize Park
940GZZLUCAR,A-CAL,51.54857,-0.11812,Caledonian Road
940GZZLUCFM,A-HAV,51.54395,-0.15351,Chalk Farm
940GZZLUCGN,A-LON,51.51307,-0.12423,Covent Garden
940GZZLUCHL,A-H/G,51.51818,-0.11111,Chancery Lane
940GZZLUCKS,A-C-E,51.65155,-0.14981,Cockfosters
940GZZLUCND,A-COL,51.59533,-0.24992,Colindale
940GZZLUCPC,A-CLA,51.46181,-0.13847,Clapham Common
940GZZLUCPK,A-W-R,51.60756,-0.29444,Canons Park
940GZZLUCPN,A-BED,51.46518,-0.12955,Clapham North
940GZZLUCPS,A-BAL,51.4529,-0.14767,Clapham South
940GZZLUCSD,A-COL,51.41805,-0.17819,Colliers Wood
940GZZLUCSM,A-STA,51.7055,-0.61105,Chesham
940GZZLUCTN,A-KEN,51.5393,-0.14249,Camden Town
940GZZLUCWL,A-HIG,51.61784,0.0743,Chigwell
940GZZLUCWP,A-BOL,51.49434,-0.26804,Chiswick Park
940GZZLUCXY,A-WAT,51.64696,-0.44127,Croxley
940GZZLUDBN,A-CHI,51.64554,0.08385,Debden
940GZZLUDGE,A-RAI,51.54423,0.16601,Dagenham East
940GZZLUDGY,A-HEA,51.54176,0.14778,Dagenham Heathway
940GZZLUDOH,A-CHA,51.55151,-0.23917,Dollis Hill
940GZZLUEAE,A-FIE,51.57645,-0.39725,Eastcote
940GZZLUEAN,A-ERC,51.51659,-0.24749,East Acton
940GZZLUECM,A-UXB,51.51032,-0.28817,Ealing Common
940GZZLUECT,A-EAR,51.4922,-0.19319,Earl's Court
940GZZLUEFY,A-GRE,51.58704,-0.16428,East Finchley
940GZZLUEGW,A-STA,51.61366,-0.27582,Edgware
940GZZLUEHM,A-HSN,51.53929,0.05127,East Ham
940GZZLUEMB,A-VIC,51.50697,-0.12191,Embankment
940GZZLUEPG,A-STA,51.69373,0.11368,Epping
940GZZLUEPK,A-BRO,51.54992,0.19922,Elm Park
940GZZLUEPY,A-UPP,51.45916,-0.21074,East Putney
940GZZLUERB,A-EDG,51.52021,-0.17027,Edgware Road
940GZZLUERC,A-CHA,51.51967,-0.16803,Edgware Road
940GZZLUESQ,BookH,51.5256,-0.13577,Euston Square
940GZZLUFBY,A-FUL,51.4801,-0.19541,Fulham Broadway
940GZZLUFLP,A-FOR,51.59557,0.09071,Fairlop
940GZZLUFYC,A-BAL,51.60109,-0.19235,Finchley Central
940GZZLUFYR,BCQ,51.54685,-0.17956,Finchley Road
940GZZLUGDG,A-TOT,51.52067,-0.1345,Goodge Street
940GZZLUGGH,A-MAN,51.61348,0.09185,Grange Hill
940GZZLUGGN,A-NOR,51.57203,-0.19441,Golders Green
940GZZLUGHK,A-WEL,51.50197,-0.22647,Goldhawk Road
940GZZLUGPK,A-P-N,51.50684,-0.14283,Green Park
940GZZLUGPS,A-GRE,51.52374,-0.1437,Great Portland Street
940GZZLUGTH,A-C-E,51.57659,0.06684,Gants Hill
940GZZLUGTR,A-GLO,51.49433,-0.18259,Gloucester Road
940GZZLUHBN,A-KIN,51.51736,-0.11999,Holborn
940GZZLUHBT,A-BAR,51.65047,-0.19442,High Barnet
940GZZLUHCH,A-STA,51.5541,0.21925,Hornchurch
940GZZLUHCL,A-WAT,51.58298,-0.22694,Hendon Central
940GZZLUHGD,A-LON,51.55372,-0.44813,Hillingdon
940GZZLUHGR,A-NW,51.53013,-0.29275,Hanger Lane
940GZZLUHGT,A-CAR,51.57759,-0.14598,Highgate
940GZZLUHLT,A-NEW,51.60392,0.09312,Hainault
940GZZLUHNX,A-HAT,51.46695,-0.42293,Hatton Cross
940GZZLUHPC,A-K-N,51.50307,-0.15277,Hyde Park Corner
940GZZLUHPK,A-HOL,51.50728,-0.20562,Holland Park
940GZZLUHSK,A-KEN,51.50103,-0.19292,High Street Kensington
940GZZLUHTD,A-HAM,51.55663,-0.17836,Hampstead
940GZZLUHWC,A-LAM,51.4712,-0.36701,Hounslow Central
940GZZLUHWE,A-K-E,51.47331,-0.3568,Hounslow East
940GZZLUHWT,A-BAT,51.47305,-0.38564,Hounslow West
940GZZLUHWY,A-HOL,51.5529,-0.11274,Holloway Road
940GZZLUICK,A-GLO,51.56202,-0.4419,Ickenham
940GZZLUKBN,A-SHO,51.54693,-0.20409,Kilburn
940GZZLUKBY,A-KIN,51.58498,-0.2787,Kingsbury
940GZZLUKNB,A-BRO,51.49991,-0.16261,Knightsbridge
940GZZLUKNG,A-KEN,51.48834,-0.1058,Kennington
940GZZLUKPK,A-CAM,51.53505,-0.19358,Kilburn Park
940GZZLULAD,A-LAD,51.51742,-0.21007,Ladbroke Grove
940GZZLULBN,A-WES,51.49885,-0.11221,Lambeth North
940GZZLULGN,A-STA,51.64175,0.0551,Loughton
940GZZLULGT,A-BAY,51.51168,-0.17542,Lancaster Gate
940GZZLULRD,A-BRA,51.5137,-0.21763,Latimer Road
940GZZLULSQ,A-CHA,51.51173,-0.12822,Leicester Square
940GZZLULYN,A-LEY,51.55649,-0.00582,Leyton
940GZZLULYS,A-FAI,51.56836,0.00719,Leytonstone
940GZZLUMBA,A-O-N,51.5135,-0.15845,Marble Arch
940GZZLUMDN,A-LON,51.40203,-0.19469,Morden
940GZZLUMED,A-MIL,51.52525,-0.0334,Mile End
940GZZLUMHL,A-BIT,51.60827,-0.20977,Mill Hill East
940GZZLUMMT,A-FIS,51.51051,-0.08596,Monument
940GZZLUMPK,A-SOU,51.62967,-0.43273,Moor Park
940GZZLUMRH,A-S-N,51.57094,-0.09566,Manor House
940GZZLUMSH,A-GAR,51.51216,-0.09389,Mansion House
940GZZLUMTC,A-HAM,51.53413,-0.13913,Mornington Crescent
940GZZLUMVL,A-RAN,51.52981,-0.18587,Maida Vale
940GZZLUNAN,A-VIC,51.52346,-0.25976,North Acton
940GZZLUNBP,A-EAS,51.57556,0.09065,Newbury Park
940GZZLUNDN,A-NEA,51.55402,-0.24976,Neasden
940GZZLUNEN,A-STA,51.51755,-0.28915,North Ealing
940GZZLUNFD,A-NOR,51.49927,-0.31455,Northfields
940GZZLUNGW,BEntr,51.50007,0.00313,North Greenwich
940GZZLUNHA,A-STA,51.58492,-0.36202,North Harrow
940GZZLUNHG,A-N-S,51.50893,-0.19656,Notting Hill Gate
940GZZLUNHT,A-MAN,51.54819,-0.36807,Northolt
940GZZLUNKP,A-NOR,51.57871,-0.31818,Northwick Park
940GZZLUNOW,A-GRE,51.61116,-0.4237,Northwood
940GZZLUNWH,A-JOE,51.60078,-0.40947,Northwood Hills
940GZZLUOAK,A-BRA,51.64763,-0.13209,Oakwood
940GZZLUOSY,A-GRE,51.48089,-0.35162,Osterley
940GZZLUOVL,A-CLA,51.48193,-0.11249,Oval
940GZZLUOXC,A-OSE,51.51512,-0.14192,Oxford Circus
940GZZLUPCC,A-P/R,51.50955,-0.13455,Piccadilly Circus
940GZZLUPCO,A-RAM,51.48929,-0.13372,Pimlico
940GZZLUPKR,A-HAN,51.52709,-0.28465,Park Royal
940GZZLUPLW,A-PLA,51.53128,0.01804,Plaistow
940GZZLUPNR,A-STA,51.59301,-0.3811,Pinner
940GZZLUPRD,A-PRE,51.57178,-0.29487,Preston Road
940GZZLUPSG,A-PAR,51.47535,-0.20088,Parsons Green
940GZZLUPVL,A-HOR,51.53677,-0.32401,Perivale
940GZZLUPYB,A-STA,51.46794,-0.20916,Putney Bridge
940GZZLUQBY,A-QUE,51.5941,-0.28552,Queensbury
940GZZLUQWY,A-QUE,51.51062,-0.18717,Queensway
940GZZLURBG,A-EAS,51.57628,0.04556,Redbridge
940GZZLURGP,A-MAR,51.52359,-0.14671,Regent's Park
940GZZLURSG,A-WES,51.5606,-0.4111,Ruislip Gardens
940GZZLURSM,A-VIC,51.57315,-0.41292,Ruislip Manor
940GZZLURSP,A-STA,51.57158,-0.42133,Ruislip
940GZZLURSQ,A-BER,51.52318,-0.12435,Russell Square
940GZZLURVP,A-RAR,51.49406,-0.23656,Ravenscourt Park
940GZZLURVY,A-STW,51.61734,0.04355,Roding Valley
940GZZLURYL,A-IMP,51.57495,-0.37076,Rayners Lane
940GZZLURYO,A-LOR,51.51911,-0.18878,Royal Oak
940GZZLUSBM,A-UXB,51.5057,-0.22627,Shepherd's Bush Market
940GZZLUSEA,A-SOU,51.50138,-0.30685,South Ealing
940GZZLUSFB,A-GOL,51.49495,-0.24497,Stamford Brook
940GZZLUSFS,A-WIM,51.44486,-0.20654,Southfields
940GZZLUSGN,A-MIL,51.5218,-0.04661,Stepney Green
940GZZLUSGT,A-STA,51.63232,-0.12806,Southgate
940GZZLUSHH,A-NOR,51.56491,-0.35259,South Harrow
940GZZLUSJP,A-PET,51.49964,-0.13365,St James's Park
940GZZLUSJW,A-FIN,51.53454,-0.17415,St John's Wood
940GZZLUSKS,A-PEL,51.49407,-0.1741,South Kensington
940GZZLUSKW,A-CLA,51.47225,-0.12266,Stockwell
940GZZLUSNB,A-STA,51.58103,0.02143,Snaresbrook
940GZZLUSPU,A-NEW,51.51494,-0.09758,St Paul's
940GZZLUSSQ,A-SLO,51.49249,-0.15663,Sloane Square
940GZZLUSTM,A-LON,51.61973,-0.30317,Stanmore
940GZZLUSUH,A-GRE,51.55701,-0.33607,Sudbury Hill
940GZZLUSUT,A-STA,51.55095,-0.31558,Sudbury Town
940GZZLUSWC,A-A-E,51.5433,-0.1744,Swiss Cottage
940GZZLUSWF,A-G-E,51.59193,0.02769,South Woodford
940GZZLUSWK,A-CUT,51.50375,-0.10469,Southwark
940GZZLUSWN,A-MOR,51.41527,-0.19251,South Wimbledon
940GZZLUTAW,A-TOT,51.63018,-0.17928,Totteridge & Whetstone
940GZZLUTBC,A-TRI,51.43576,-0.15972,Tooting Bec
940GZZLUTBY,A-TOO,51.42793,-0.16809,Tooting Broadway
940GZZLUTFP,A-BRE,51.55672,-0.13816,Tufnell Park
940GZZLUTHB,A-STA,51.67137,0.10289,Theydon Bois
940GZZLUTMP,A-TEM,51.51101,-0.11397,Temple
940GZZLUTNG,A-TUR,51.49538,-0.25521,Turnham Green
940GZZLUTPN,A-BUS,51.59057,-0.10262,Turnpike Lane
940GZZLUTWH,A-TRI,51.5102,-0.07681,Tower Hill
940GZZLUUPB,A-UPM,51.55901,0.23587,Upminster Bridge
940GZZLUUPK,A-GRE,51.53548,0.03521,Upton Park
940GZZLUUPY,A-UPN,51.53849,0.10156,Upney
940GZZLUUXB,A-UXB,51.54605,-0.47922,Uxbridge
940GZZLUWAF,A-CAS,51.65765,-0.41769,Watford
940GZZLUWCY,A-WOO,51.51196,-0.22474,White City
940GZZLUWFN,A-NET,51.60958,-0.18863,West Finchley
940GZZLUWHP,A-WES,51.54677,-0.19102,West Hampstead
940GZZLUWHW,A-VAU,51.58015,-0.35312,West Harrow
940GZZLUWIG,A-WAL,51.54924,-0.22094,Willesden Green
940GZZLUWIP,A-ART,51.43462,-0.19962,Wimbledon Park
940GZZLUWKA,A-W-N,51.52336,-0.18366,Warwick Avenue
940GZZLUWKN,A-NOR,51.4907,-0.20686,West Kensington
940GZZLUWLA,BookH,51.50968,-0.22446,Wood Lane
940GZZLUWOF,A-BRO,51.60744,0.03359,Woodford
940GZZLUWOG,A-WOO,51.5973,-0.10997,Wood Green
940GZZLUWOP,A-WOO,51.61795,-0.18516,Woodside Park
940GZZLUWRR,A-TOT,51.52457,-0.13799,Warren Street
940GZZLUWSD,A-EAS,51.57559,0.02831,Wanstead
940GZZLUWSP,A-GRE,51.5209,-0.20067,Westbourne Park
940GZZLUWTA,A-NOE,51.51789,-0.28108,West Acton
940GZZLUWYP,A-BRI,51.56326,-0.2792,Wembley Park
940GZZNEUGST,BH,51.47991,-0.12848,Nine Elms
HUBABW,Bus,51.49238,0.12128,Abbey Wood
HUBAMR,A-CHI,51.67425,-0.60731,Amersham
HUBBAL,A-CHE,51.44351,-0.15319,Balham
HUBBAN,BMez,51.5124,-0.09031,Bank
HUBBDS,A-O-S,51.51439,-0.1489,Bond Street
HUBBEK,Entr,51.41059,-0.0259,Beckenham Junction
HUBBFR,Bdg,51.51035,-0.10424,Blackfriars
HUBBHO,A-FOR,51.58698,-0.04171,Blackhorse Road
HUBBIR,EntrT,51.40374,-0.05529,Birkbeck
HUBBKG,BookH,51.53955,0.08142,Barking
HUBBRX,A-BRI,51.46265,-0.11496,Brixton
HUBBSH,Swa,51.64602,-0.38635,Bushey
HUBCAN,BookH,51.51446,0.00761,Canning Town
HUBCAW,BookJ,51.50368,-0.01866,Canary Wharf
HUBCFO,A-BED,51.6682,-0.56052,Chalfont & Latimer
HUBCHX,1-STR,51.50812,-0.12497,Charing Cross
HUBCLJ,Bus,51.46333,-0.16912,Clapham Junction
HUBCLW,A-STA,51.65447,-0.51865,Chorleywood
HUBCST,A-DOW,51.51158,-0.09079,Cannon Street
HUBCUS,BCD,51.50991,0.02548,Custom House for ExCel
HUBCUT,Bus,51.48144,-0.01122,Cutty Sark for Maritime Greenwich
HUBCYP,Bus,51.41717,-0.07333,Crystal Palace
HUBEAL,Bus,51.51502,-0.30206,Ealing Broadway
HUBECY,ENTT,51.37485,-0.09242,East Croydon
HUBELM,Bridg,51.39835,-0.04949,Elmers End
HUBEPH,A-LON,51.49573,-0.10083,Elephant & Castle
HUBEUS,A-EUS,51.52764,-0.13219,Euston
HUBFPK,A-WEL,51.56521,-0.10779,Finsbury Park
HUBGFD,A-OLD,51.54238,-0.34607,Greenford
HUBGNW,Bus,51.47782,-0.01292,Greenwich
HUBGUN,Bus,51.49247,-0.2752,Gunnersbury
HUBH13,A-BUS,51.47115,-0.45225,Heathrow Terminals 2 & 3
HUBHDN,ACTON,51.53613,-0.25721,Harlesden
HUBHHY,A-HOL,51.54622,-0.1035,Highbury & Islington
HUBHMS,A-BRA,51.4926,-0.22424,Hammersmith
HUBHOH,A-STA,51.57899,-0.33719,Harrow-on-the-Hill
HUBHRW,Bus M,51.59225,-0.33388,Harrow & Wealdstone
HUBHX4,A-TER,51.45905,-0.44665,Heathrow Terminal 4
HUBHX5,A-T5,51.47193,-0.48821,Heathrow Terminal 5
HUBIMP,Bus,51.47555,-0.1831,Imperial Wharf
HUBKGX,A-E-N,51.53024,-0.12354,King's Cross St Pancras
HUBKNL,BRDGE,51.53031,-0.22511,Kensal Green
HUBKNT,Bus,51.5815,-0.31803,Kenton
HUBKPA,Bus,51.496,-0.20799,Kensington (Olympia)
HUBKTN,Bus,51.55094,-0.14082,Kentish Town
HUBKWG,Bus,51.47741,-0.28684,Kew Gardens
HUBLBG,A-DUK,51.50573,-0.0866,London Bridge
HUBLCY,AIRPO,51.50329,0.0498,London City Airport
HUBLEW,Bus,51.46454,-0.01261,Lewisham
HUBLHS,BRANC,51.5123,-0.03922,Limehouse
HUBLST,A-OLD,51.51741,-0.08291,Liverpool Street
HUBMJT,Bus,51.39403,-0.15896,Mitcham Junction
HUBMYB,A-BRC,51.52232,-0.16316,Marylebone
HUBNWB,Bus,51.56257,-0.30582,North Wembley
HUBNWD,BusE,51.39863,-0.07512,Norwood Junction
HUBNWX,AMERS,51.47651,-0.03219,New Cross
HUBNXG,Bus,51.47499,-0.04028,New Cross Gate
HUBOLD,B-NW,51.52588,-0.08803,Old Street
HUBPAD,A-PRA,51.51549,-0.1757,Paddington
HUBQPW,BakNB,51.53404,-0.2052,Queen's Park
HUBRIC,A-REC,51.64045,-0.47343,Rickmansworth
HUBRMD,Bus,51.46341,-0.30208,Richmond
HUBSBP,Bus,51.54396,-0.27461,Stonebridge Park
HUBSDE,Bus,51.51138,-0.05583,Shadwell
HUBSOK,BakNB,51.57035,-0.30863,South Kenton
HUBSPB,A-SHE,51.50462,-0.21814,Shepherd's Bush
HUBSRA,BRIDG,51.54221,-0.00207,Stratford
HUBSRU,A-STA,51.55645,-0.39873,South Ruislip
HUBSVS,A-SEV,51.58189,-0.07519,Seven Sisters
HUBSYD,BHP,51.42761,-0.05463,Sydenham
HUBTCR,A-TOT,51.51657,-0.13016,Tottenham Court Road
HUBTOG,Bus,51.51042,-0.07487,Tower Gateway
HUBTOM,A-STA,51.58851,-0.06044,Tottenham Hale
HUBUPM,BridE,51.5589,0.25327,Upminster
HUBVIC,A-VIC,51.49597,-0.14372,Victoria
HUBVXH,A-SLP,51.48569,-0.12327,Vauxhall
HUBWAT,A-YOR,51.5039,-0.11523,Waterloo
HUBWBP,A-OLD,51.48738,-0.19564,West Brompton
HUBWCY,Bridg,51.37831,-0.10245,West Croydon
HUBWEH,A-MAN,51.52777,0.00504,West Ham
HUBWFJ,Entr,51.66377,-0.39691,Watford Junction
HUBWHC,A-SEL,51.58317,-0.02001,Walthamstow Central
HUBWIJ,BakNB,51.53229,-0.24427,Willesden Junction
HUBWIM,BookH,51.42113,-0.20672,Wimbledon
HUBWMB,Bus,51.55255,-0.29696,Wembley Central
HUBWRU,A-ICK,51.56976,-0.43787,West Ruislip
HUBWSM,A-BRI,51.50095,-0.12495,Westminster
HUBWWA,BED,51.49079,0.06854,Woolwich Arsenal
HUBZCW,Bus,51.49792,-0.04988,Canada Water
HUBZFD,BookH,51.5202,-0.10483,Farringdon
HUBZMG,A-F-E,51.5188,-0.0884,Moorgate
HUBZWL,A-WHI,51.5192,-0.05961,Whitechapel
